% program   : RTKLIB ver.2.4.2
% inp file  : /home/gao-yixin/GraphGNSSLib/src/GraphGNSSLib/global_fusion/dataset/2021_0521_0607/UrbanNav_HK_Deep_Urban_ubloxf9p.obs
% inp file  : /home/gao-yixin/GraphGNSSLib/src/GraphGNSSLib/global_fusion/dataset/2021_0521_0607/hkqt141g.21o
% inp file  : /home/gao-yixin/GraphGNSSLib/src/GraphGNSSLib/global_fusion/dataset/2021_0521_0607/hkqt141g.21c
% inp file  : /home/gao-yixin/GraphGNSSLib/src/GraphGNSSLib/global_fusion/dataset/2021_0521_0607/hkqt141g.21n
% obs start : 2021/05/21 06:29:06.0 GPST (week2158 455346.0s)
% obs end   : 2021/05/21 06:54:40.0 GPST (week2158 456880.0s)
% pos mode  : kinematic
% freqs     : L1+L2
% solution  : forward
% elev mask : 15.0 deg
% dynamics  : off
% tidecorr  : off
% ionos opt : broadcast
% tropo opt : saastamoinen
% ephemeris : broadcast
% navi sys  : gps glonass galileo qzss sbas
% amb res   : fix and hold
% amb glo   : on
% val thres : 3.0
% antenna1  :                       ( 0.0000  0.0000  0.0000)
% antenna2  :                       ( 0.0000  0.0000  0.0000)
% ref pos   : 22.291035082, 114.213215939,    5.1761
%
% (lat/lon/height=WGS84/ellipsoidal,Q=1:fix,2:float,3:sbas,4:dgps,5:single,6:ppp,ns=# of satellites)
%  GPST        , latitude(deg),longitude(deg), height(m),  Q, ns,  sdn(m),  sde(m),  sdu(m), sdne(m), sdeu(m), sdun(m),age(s), ratio
2158,455346.000,  22.301551777, 114.190307276,    3.0011,  2, 14,  0.4985,  0.4190,  1.0367, -0.0489,  0.1826,  0.3514, -0.00,   1.1
2158,455347.000,  22.301551970, 114.190307576,    3.0188,  2, 14,  0.3540,  0.2974,  0.7360, -0.0347,  0.1292,  0.2502, -0.00,   1.0
2158,455348.000,  22.301553413, 114.190305363,    2.9035,  2, 15,  0.2772,  0.2428,  0.5809, -0.0431,  0.0957,  0.1700, -0.00,   1.1
2158,455349.000,  22.301556198, 114.190299559,    2.9983,  2, 15,  0.2360,  0.2104,  0.4962, -0.0413,  0.0793,  0.1339, -0.00,   1.0
2158,455350.000,  22.301558233, 114.190289672,    2.9487,  2, 14,  0.2135,  0.1883,  0.4479, -0.0348,  0.0730,  0.1274, -0.00,   1.0
2158,455351.000,  22.301560951, 114.190276913,    2.9423,  2, 15,  0.1928,  0.1719,  0.4054, -0.0336,  0.0649,  0.1096, -0.00,   1.1
2158,455352.000,  22.301565950, 114.190264783,    2.8544,  2, 14,  0.1799,  0.1592,  0.3778, -0.0297,  0.0613,  0.1060, -0.00,   1.1
2158,455353.000,  22.301574871, 114.190254723,    2.8563,  2, 15,  0.1670,  0.1489,  0.3512, -0.0289,  0.0563,  0.0950, -0.00,   1.1
2158,455354.000,  22.301586730, 114.190245934,    2.9483,  2, 15,  0.1565,  0.1404,  0.3295, -0.0281,  0.0524,  0.0865, -0.00,   1.1
2158,455355.000,  22.301600292, 114.190237673,    2.9836,  2, 15,  0.1481,  0.1336,  0.3115, -0.0249,  0.0496,  0.0800, -0.00,   1.0
2158,455356.000,  22.301615817, 114.190228823,    3.0018,  2, 14,  0.1423,  0.1278,  0.2984, -0.0208,  0.0485,  0.0793, -0.00,   1.0
2158,455357.000,  22.301637446, 114.190217241,    3.0644,  2, 13,  0.1368,  0.1231,  0.2875, -0.0185,  0.0440,  0.0776, -0.00,   1.0
2158,455358.000,  22.301665880, 114.190203215,    3.1106,  2, 14,  0.1309,  0.1190,  0.2756, -0.0173,  0.0395,  0.0722, -0.00,   1.1
2158,455359.000,  22.301700238, 114.190187246,    3.1369,  2, 15,  0.1255,  0.1150,  0.2639, -0.0175,  0.0334,  0.0665, -0.00,   1.0
2158,455360.000,  22.301738885, 114.190169222,    3.1509,  2, 15,  0.1207,  0.1115,  0.2537, -0.0172,  0.0280,  0.0617, -0.00,   1.0
2158,455361.000,  22.301781764, 114.190149215,    3.1553,  2, 14,  0.1165,  0.1084,  0.2455, -0.0163,  0.0251,  0.0584, -0.00,   1.1
2158,455362.000,  22.301829156, 114.190126683,    3.1567,  2, 14,  0.1129,  0.1057,  0.2381, -0.0139,  0.0226,  0.0556, -0.00,   1.0
2158,455363.000,  22.301879999, 114.190101885,    3.1617,  2, 14,  0.1095,  0.1031,  0.2313, -0.0130,  0.0202,  0.0530, -0.00,   1.1
2158,455364.000,  22.301933062, 114.190075586,    3.1847,  2, 13,  0.1070,  0.1009,  0.2268, -0.0101,  0.0139,  0.0521, -0.00,   1.0
2158,455365.000,  22.301985739, 114.190049357,    3.2007,  2, 14,  0.1046,  0.0984,  0.2221, -0.0079,  0.0122,  0.0513, -0.00,   1.1
2158,455366.000,  22.302037171, 114.190024047,    3.1706,  2, 13,  0.1024,  0.0965,  0.2180, -0.0035, -0.0013,  0.0503, -0.00,   1.1
2158,455367.000,  22.302087085, 114.189999634,    3.1609,  2, 14,  0.0998,  0.0947,  0.2131,  0.0050, -0.0122,  0.0474, -0.00,   1.0
2158,455368.000,  22.302135597, 114.189975346,    3.1788,  2, 12,  0.0981,  0.0931,  0.2097,  0.0091, -0.0167,  0.0463, -0.00,   1.1
2158,455369.000,  22.302181830, 114.189949305,    3.1207,  2, 11,  0.0967,  0.0916,  0.2068,  0.0109, -0.0189,  0.0441, -0.00,   1.1
2158,455370.000,  22.302223118, 114.189918362,    3.0912,  2, 10,  0.0960,  0.0902,  0.2050,  0.0113, -0.0202,  0.0394, -0.00,   2.2
2158,455371.000,  22.302256881, 114.189881328,    3.0440,  2, 11,  0.0948,  0.0889,  0.2018,  0.0111, -0.0212,  0.0340, -0.00,   2.1
2158,455372.000,  22.302280404, 114.189839274,    3.0391,  2, 11,  0.0936,  0.0876,  0.1989,  0.0115, -0.0221,  0.0330, -0.00,   1.0
2158,455373.000,  22.302292551, 114.189795224,    3.0546,  2, 12,  0.0921,  0.0863,  0.1958,  0.0129, -0.0237,  0.0328, -0.00,   1.3
2158,455374.000,  22.302294626, 114.189751062,    3.0506,  2, 13,  0.0904,  0.0851,  0.1923,  0.0141, -0.0251,  0.0302, -0.00,   1.2
2158,455375.000,  22.302286966, 114.189708225,    3.0581,  2, 12,  0.0891,  0.0839,  0.1898,  0.0152, -0.0262,  0.0299, -0.00,   1.4
2158,455376.000,  22.302270787, 114.189668616,    3.0709,  2, 12,  0.0878,  0.0828,  0.1873,  0.0160, -0.0